{
  "source": "Web research (Google Maps, Wikipedia, tourism sites)",
  "date": "2026-03-30",
  "total": 32,
  "places": [
    {
      "id": 1,
      "name_ru": "Мидаграбинские водопады",
      "name_en": "Midagrabin Waterfalls",
      "lat": 42.7535,
      "lng": 44.3633,
      "category": "nature",
      "description_ru": "Группа из 50+ водопадов в верховьях Гизельдонского ущелья. Один из самых высоких водопадов в Европе — до 750 м сезонно (Большой Зейгалан).",
      "description_en": "A group of 50+ waterfalls in the upper Gizeldon Gorge. One of the tallest waterfalls in Europe — up to 750m seasonally (Bolshoy Zeygalan).",
      "photo": null
    },
    {
      "id": 2,
      "name_ru": "Цейское ущелье",
      "name_en": "Tsey Gorge",
      "lat": 42.7667,
      "lng": 43.8833,
      "category": "nature",
      "description_ru": "Живописное ущелье длиной 23 км на высоте 1300 м. Горнолыжный курорт, альпийские луга, ледники и святилище Реком.",
      "description_en": "A picturesque 23km gorge at 1300m altitude. Ski resort, alpine meadows, glaciers, and the ancient Rekom sanctuary.",
      "photo": null
    },
    {
      "id": 3,
      "name_ru": "Цейский ледник",
      "name_en": "Tsey Glacier",
      "lat": 42.7751,
      "lng": 43.8605,
      "category": "nature",
      "description_ru": "Крупный долинный ледник на северных склонах Кавказского хребта в Цейском ущелье.",
      "description_en": "A major valley glacier on the northern slopes of the Caucasus range in Tsey Gorge.",
      "photo": null
    },
    {
      "id": 4,
      "name_ru": "Сказский ледник",
      "name_en": "Skaz Glacier",
      "lat": 42.7651,
      "lng": 43.8912,
      "category": "nature",
      "description_ru": "Ледник на склоне горы Адай-Хох (4408 м), нижняя часть спускается до высоты 2900 м.",
      "description_en": "A glacier on the slope of Mount Aday-Khokh (4408m), its lower part descends to 2900m.",
      "photo": null
    },
    {
      "id": 5,
      "name_ru": "Кармадонское ущелье",
      "name_en": "Karmadon Gorge",
      "lat": 42.8429,
      "lng": 44.5179,
      "category": "nature",
      "description_ru": "Ущелье длиной 17 км с рекой Геналдон, ледником Колка, минеральными источниками. Место трагедии 2002 года.",
      "description_en": "A 17km gorge with the Genaldon river, Kolka glacier, and mineral springs. Site of the 2002 tragedy.",
      "photo": null
    },
    {
      "id": 6,
      "name_ru": "Водопад Галдоридон (Жемчужный)",
      "name_en": "Galdoridon (Pearl) Waterfall",
      "lat": 42.9111,
      "lng": 43.5520,
      "category": "nature",
      "description_ru": "Красивейший 30-метровый водопад в Дигории (Ирафский район), пятикаскадная система.",
      "description_en": "A stunning 30m waterfall in Digoria (Irafsky district), five-cascade system.",
      "photo": null
    },
    {
      "id": 7,
      "name_ru": "Столовая гора (Мят-Лоам)",
      "name_en": "Table Mountain (Myat-Loam)",
      "lat": 42.8703,
      "lng": 44.7075,
      "category": "nature",
      "description_ru": "Гора-символ у Владикавказа, видна с проспекта Мира. Высота 3003 м, пешие маршруты и пещеры.",
      "description_en": "Iconic mountain near Vladikavkaz, visible from Prospekt Mira. 3003m altitude, hiking trails and caves.",
      "photo": null
    },
    {
      "id": 8,
      "name_ru": "Национальный парк «Алания»",
      "name_en": "Alania National Park",
      "lat": 42.9000,
      "lng": 43.7333,
      "category": "nature",
      "description_ru": "Высокогорный национальный парк (основан 1998), 55 000+ га. Ледники, водопады, эндемичные виды.",
      "description_en": "A high-altitude national park (est. 1998), 55,000+ hectares. Glaciers, waterfalls, endemic species.",
      "photo": null
    },
    {
      "id": 9,
      "name_ru": "Зарамагское водохранилище",
      "name_en": "Zaramag Reservoir",
      "lat": 42.6985,
      "lng": 43.9757,
      "category": "nature",
      "description_ru": "Живописное водохранилище в Кассарском ущелье с бирюзовой водой и островком-памятником.",
      "description_en": "A picturesque reservoir in Kassarsky Gorge with turquoise water and a memorial islet.",
      "photo": null
    },
    {
      "id": 10,
      "name_ru": "Куртатинское ущелье",
      "name_en": "Kurtatinsky Gorge",
      "lat": 42.8500,
      "lng": 44.3000,
      "category": "nature",
      "description_ru": "Одно из главных ущелий Осетии, богатое памятниками архитектуры, каньонами и панорамами.",
      "description_en": "One of the main gorges of Ossetia, rich in architectural monuments, canyons and panoramas.",
      "photo": null
    },
    {
      "id": 11,
      "name_ru": "Даргавс — «Город мёртвых»",
      "name_en": "Dargavs — City of the Dead",
      "lat": 42.8413,
      "lng": 44.4453,
      "category": "history",
      "description_ru": "Некрополь XIV–XVIII вв., 97 каменных склепов-башен на склоне горы Раминырах. Одна из главных достопримечательностей Кавказа.",
      "description_en": "A necropolis from the 14th–18th centuries, 97 stone crypt-towers on the slope of Mount Raminyrakh. One of the main attractions of the Caucasus.",
      "photo": null
    },
    {
      "id": 12,
      "name_ru": "Дзивгисская скальная крепость",
      "name_en": "Dzivgis Rock Fortress",
      "lat": 42.8776,
      "lng": 44.3147,
      "category": "history",
      "description_ru": "Средневековая наскальная крепость XIII–XVI вв. в Фиагдонском ущелье, крупнейшая скальная крепость на Кавказе.",
      "description_en": "A medieval rock fortress from the 13th–16th centuries in Fiagdon Gorge, the largest rock fortress in the Caucasus.",
      "photo": null
    },
    {
      "id": 13,
      "name_ru": "Башенный комплекс Цимити",
      "name_en": "Tsimiti Tower Complex",
      "lat": 42.8381,
      "lng": 44.2911,
      "category": "history",
      "description_ru": "Музей под открытым небом: 30+ средневековых башен, склепов и жилых руин XIV–XVI вв.",
      "description_en": "An open-air museum: 30+ medieval towers, crypts and residential ruins from the 14th–16th centuries.",
      "photo": null
    },
    {
      "id": 14,
      "name_ru": "Нузальская часовня",
      "name_en": "Nuzal Chapel",
      "lat": 42.8244,
      "lng": 44.0236,
      "category": "history",
      "description_ru": "Часовня XII–XIV вв. в Алагирском ущелье с уникальными фресками, связана с аланскими царями.",
      "description_en": "A chapel from the 12th–14th centuries in Alagir Gorge with unique frescoes, associated with Alanian kings.",
      "photo": null
    },
    {
      "id": 15,
      "name_ru": "Галиат",
      "name_en": "Galiat Village",
      "lat": 42.9194,
      "lng": 43.8478,
      "category": "history",
      "description_ru": "«Мачу-Пикчу Дигории» — средневековый архитектурный комплекс XIII–XVIII вв. на высоте 2000+ м.",
      "description_en": "The 'Machu Picchu of Digoria' — a medieval architectural complex from the 13th–18th centuries at 2000+ m altitude.",
      "photo": null
    },
    {
      "id": 16,
      "name_ru": "Тропа чудес в Кадаргаване",
      "name_en": "Kadargavan Trail of Wonders",
      "lat": 42.8819,
      "lng": 44.3269,
      "category": "history",
      "description_ru": "Тропа над обрывом каньона Кадаргаван в Куртатинском ущелье с панорамными видами.",
      "description_en": "A trail above the Kadargavan canyon cliff in Kurtatinsky Gorge with panoramic views.",
      "photo": null
    },
    {
      "id": 17,
      "name_ru": "Памятник Уастырджи",
      "name_en": "Uastyrdzhi Monument",
      "lat": 42.9589,
      "lng": 44.2117,
      "category": "monument",
      "description_ru": "Самая высокая конная статуя в мире — 28-тонная бронзовая фигура всадника, вырывающегося из скалы на высоте 22 м.",
      "description_en": "The tallest equestrian statue in the world — a 28-ton bronze figure of a horseman bursting from a cliff at 22m height.",
      "photo": null
    },
    {
      "id": 18,
      "name_ru": "«Город ангелов» (мемориал Беслана)",
      "name_en": "City of Angels (Beslan Memorial)",
      "lat": 43.1913,
      "lng": 44.5663,
      "category": "memorial",
      "description_ru": "Мемориальное кладбище жертв теракта в Беслане (2004), 266 захоронений, памятник «Древо скорби».",
      "description_en": "Memorial cemetery for the victims of the Beslan terrorist attack (2004), 266 burials, 'Tree of Sorrow' monument.",
      "photo": null
    },
    {
      "id": 19,
      "name_ru": "Памятник Сергею Бодрову",
      "name_en": "Sergei Bodrov Memorial",
      "lat": 43.0087,
      "lng": 44.5712,
      "category": "memorial",
      "description_ru": "Мемориал у пос. Гизель в память о съёмочной группе, погибшей при сходе ледника Колка в 2002 г.",
      "description_en": "A memorial near Gizel village in memory of the film crew that perished during the Kolka glacier collapse in 2002.",
      "photo": null
    },
    {
      "id": 20,
      "name_ru": "Фонтан «Нарт Сослан»",
      "name_en": "Nart Soslan Fountain",
      "lat": 43.0297,
      "lng": 44.6800,
      "category": "monument",
      "description_ru": "Памятник-фонтан на центральной площади Владикавказа: нартский герой Сослан на чаше Уацамонга.",
      "description_en": "A fountain monument on the central square of Vladikavkaz: Nart hero Soslan on the Uatsamonga bowl.",
      "photo": null
    },
    {
      "id": 21,
      "name_ru": "Святилище Реком",
      "name_en": "Rekom Sanctuary",
      "lat": 42.7908,
      "lng": 43.9045,
      "category": "religion",
      "description_ru": "Древнее осетинское святилище в Цейском ущелье (1946 м), одно из главных святых мест осетин.",
      "description_en": "An ancient Ossetian sanctuary in Tsey Gorge (1946m), one of the main sacred places of the Ossetians.",
      "photo": null
    },
    {
      "id": 22,
      "name_ru": "Аланский Свято-Успенский монастырь",
      "name_en": "Alansky Holy Dormition Monastery",
      "lat": 42.8220,
      "lng": 44.2749,
      "category": "religion",
      "description_ru": "Самый высокогорный и самый южный православный монастырь в России, в Куртатинском ущелье.",
      "description_en": "The highest-altitude and southernmost Orthodox monastery in Russia, in Kurtatinsky Gorge.",
      "photo": null
    },
    {
      "id": 23,
      "name_ru": "Суннитская мечеть Мухтарова",
      "name_en": "Mukhtarov Mosque",
      "lat": 43.0258,
      "lng": 44.6758,
      "category": "religion",
      "description_ru": "Шедевр архитектуры 1908 г. в египетском стиле на берегу Терека, построена на средства бакинского нефтепромышленника.",
      "description_en": "An architectural masterpiece of 1908 in Egyptian style on the bank of the Terek, built with funds from a Baku oil magnate.",
      "photo": null
    },
    {
      "id": 24,
      "name_ru": "Церковь Св. Григория Просветителя",
      "name_en": "Armenian Church of St. Gregory the Illuminator",
      "lat": 43.0240,
      "lng": 44.6820,
      "category": "religion",
      "description_ru": "Армянская апостольская церковь 1868 г. с колокольней, на правом берегу Терека.",
      "description_en": "Armenian Apostolic church from 1868 with a bell tower, on the right bank of the Terek.",
      "photo": null
    },
    {
      "id": 25,
      "name_ru": "Свято-Георгиевский собор",
      "name_en": "St. George's Cathedral",
      "lat": 43.0301,
      "lng": 44.6620,
      "category": "religion",
      "description_ru": "Православный кафедральный собор 2010 г. с золотыми куполами, главный храм Владикавказской епархии.",
      "description_en": "An Orthodox cathedral from 2010 with golden domes, the main church of the Vladikavkaz diocese.",
      "photo": null
    },
    {
      "id": 26,
      "name_ru": "Роща Хетага",
      "name_en": "Khetag's Grove",
      "lat": 43.0597,
      "lng": 44.2936,
      "category": "religion",
      "description_ru": "Священная роща осетин, место ежегодных народных праздников и ритуальных обрядов.",
      "description_en": "A sacred grove of the Ossetians, site of annual folk festivals and ritual ceremonies.",
      "photo": null
    },
    {
      "id": 27,
      "name_ru": "Проспект Мира",
      "name_en": "Prospekt Mira (Peace Avenue)",
      "lat": 43.0312,
      "lng": 44.6758,
      "category": "city",
      "description_ru": "Главная пешеходная улица Владикавказа с историческими зданиями, кафе и культурными учреждениями.",
      "description_en": "The main pedestrian street of Vladikavkaz with historic buildings, cafes and cultural institutions.",
      "photo": null
    },
    {
      "id": 28,
      "name_ru": "Набережная реки Терек",
      "name_en": "Terek River Embankment",
      "lat": 43.0270,
      "lng": 44.6780,
      "category": "city",
      "description_ru": "Протяжённая набережная (1.6 км) с керамическими панно, видами на Столовую гору и мечеть.",
      "description_en": "A 1.6km embankment with ceramic murals, views of Table Mountain and the mosque.",
      "photo": null
    },
    {
      "id": 29,
      "name_ru": "Парк им. Коста Хетагурова",
      "name_en": "Kosta Khetagurov Park",
      "lat": 43.0263,
      "lng": 44.6787,
      "category": "city",
      "description_ru": "Многоуровневый парк с фонтанами, скульптурами и аттракционами у входа с проспекта Мира.",
      "description_en": "A multi-level park with fountains, sculptures and attractions near the entrance from Prospekt Mira.",
      "photo": null
    },
    {
      "id": 30,
      "name_ru": "Национальный музей РСО-Алания",
      "name_en": "National Museum of North Ossetia-Alania",
      "lat": 43.0310,
      "lng": 44.6790,
      "category": "culture",
      "description_ru": "Музей с 4000+ экспонатами: палеонтология, зоология, этнография, нумизматика. Проспект Мира, 11.",
      "description_en": "A museum with 4000+ exhibits: paleontology, zoology, ethnography, numismatics. Prospekt Mira, 11.",
      "photo": null
    },
    {
      "id": 31,
      "name_ru": "Художественный музей им. Туганова",
      "name_en": "Tuganov Art Museum",
      "lat": 43.0300,
      "lng": 44.6780,
      "category": "culture",
      "description_ru": "5500+ произведений искусства в особняке купца на проспекте Мира, 12.",
      "description_en": "5500+ artworks in a merchant's mansion on Prospekt Mira, 12.",
      "photo": null
    },
    {
      "id": 32,
      "name_ru": "Русский театр им. Вахтангова",
      "name_en": "Vakhtangov Russian Theatre",
      "lat": 43.0320,
      "lng": 44.6740,
      "category": "culture",
      "description_ru": "Старейший драматический театр на Северном Кавказе (1869), площадь Ленина, 3.",
      "description_en": "The oldest drama theatre in the North Caucasus (1869), Lenin Square, 3.",
      "photo": null
    }
  ]
}
